[
  {
    "lat": 53.47402,
    "lng": -2.25072,
    "name": "Forever Manchester",
    "eventType"
    "address": "2nd Floor, 8 Hewitt St, Manchester M15 4GB"
  },
  {
    "lat": 53.44293,
    "lng": -2.27849,
    "name": "British Heart Foundation",
    "address": "Chorlton Place, 7-9 Wilbraham Rd, Manchester M21 9AQ"
  },
  {
    "lat": 53.48339,
    "lng": -2.23400,
    "name": "Greater Manchester Youth Network",
    "address": "46-50, Oldham St, Manchester M4 1LE"
  },
  {
    "lat": 53.45945,
    "lng": -2.22471,
    "name": "Ronald McDonald House Manchester",
    "address": "Hathersage Rd, Manchester M13 0BH"
  },
  {
    "lat": 53.48536,
    "lng": -2.23367,
    "name": "Back on Track Manchester",
    "address": "20 Swan St, Manchester M4 5JW"
  },
  {
    "lat": 53.47690,
    "lng": -2.23803,
    "name": "Barnabus",
    "address": "45 Bloom St, Manchester M1 3LY"
  },
  {
    "lat": 53.47117,
    "lng": -2.23728,
    "name": "The Proud Trust\n",
    "address": "49-51 Sidney St, Manchester M1 7HB"
  }
]
